[
    {
        "id": 445,
        "name": "Dusseldorf, Germany",
        "lat": 51.287615,
        "lng": 6.766791,
        "radius": 100000,
        "bidding": null,
        "parent_fleet_id": 15,
        "unverified": null,
        "service_area_pricing_id": 227297
    },
    {
        "id": 70,
        "name": "Tampa,USA",
        "lat": 27.785242,
        "lng": -82.566552,
        "radius": 80467,
        "bidding": null,
        "parent_fleet_id": 15,
        "unverified": null,
        "service_area_pricing_id": 240633
    },
    {
        "id": 56,
        "name": "Toronto,Canada",
        "lat": 43.367114,
        "lng": -79.996821,
        "radius": 81000,
        "bidding": null,
        "parent_fleet_id": 15,
        "unverified": null,
        "service_area_pricing_id": 246057
    },
    {
        "id": 72,
        "name": "Orlando,USA",
        "lat": 28.431158,
        "lng": -81.308083,
        "radius": 241401,
        "bidding": null,
        "inserted_at": "2020-02-23 03:14:45",
        "last_updated_at": "2024-10-10 15:20:04",
        "parent_fleet_id": 15,
        "unverified": null,
        "service_area_pricing_id": 262119
    },
    {
        "id": 74,
        "name": "Boston, USA",
        "lat": 42.351387,
        "lng": -71.087511,
        "radius": 128747,
        "bidding": null,
        "inserted_at": "2020-02-25 04:56:11",
        "last_updated_at": "2024-10-09 16:20:37",
        "parent_fleet_id": 15,
        "unverified": null,
        "service_area_pricing_id": 256048
    },
    {
        "id": 145,
        "name": "Queenstown,New Zealand",
        "lat": -44.95566,
        "lng": 169.187999,
        "radius": 116000,
        "bidding": null,
        "inserted_at": "2020-02-27 03:02:42",
        "last_updated_at": "2024-10-08 13:00:48",
        "parent_fleet_id": 15,
        "unverified": null,
        "service_area_pricing_id": 250152
    },
    {
        "id": 277,
        "name": "Barcelona,Spain",
        "lat": 41.297445,
        "lng": 2.083294,
        "radius": 150000,
        "bidding": null,
        "inserted_at": "2020-06-08 20:54:25",
        "last_updated_at": "2024-10-10 06:04:09",
        "parent_fleet_id": 15,
        "unverified": null,
        "service_area_pricing_id": 260289
    },
    {
        "id": 327,
        "name": "Venice,Italy",
        "lat": 45.711877,
        "lng": 12.118111,
        "radius": 110000,
        "bidding": null,
        "inserted_at": "2020-06-22 22:09:10",
        "last_updated_at": "2024-10-07 14:58:08",
        "parent_fleet_id": 15,
        "unverified": null,
        "service_area_pricing_id": 245834
    },
    {
        "id": 393,
        "name": "Spokane,WA,USA",
        "lat": 47.621748,
        "lng": -117.534812,
        "radius": 321868,
        "bidding": null,
        "inserted_at": "2020-06-29 21:26:16",
        "last_updated_at": "2024-09-04 01:17:27",
        "parent_fleet_id": 15,
        "unverified": null,
        "service_area_pricing_id": 196277
    },
    {
        "id": 417,
        "name": "ST Johns, Canada",
        "lat": 47.62121,
        "lng": -52.742443,
        "radius": 200000,
        "bidding": null,
        "inserted_at": "2020-06-29 23:13:06",
        "last_updated_at": "2023-09-21 01:26:30",
        "parent_fleet_id": 15,
        "unverified": null,
        "service_area_pricing_id": 65246
    },
    {
        "id": 429,
        "name": "Palma,Spain",
        "lat": 39.551741,
        "lng": 2.736165,
        "radius": 68000,
        "bidding": null,
        "inserted_at": "2020-07-01 17:55:59",
        "last_updated_at": "2024-09-10 11:13:52",
        "parent_fleet_id": 15,
        "unverified": null,
        "service_area_pricing_id": 198858
    },
    {
        "id": 451,
        "name": "Alicante, Spain",
        "lat": 38.285483,
        "lng": -0.560056,
        "radius": 89000,
        "bidding": null,
        "inserted_at": "2020-07-02 21:36:30",
        "last_updated_at": "2024-10-01 13:31:06",
        "parent_fleet_id": 15,
        "unverified": null,
        "service_area_pricing_id": 227860
    },
    {
        "id": 995,
        "name": "Cape Town,South Africa",
        "lat": -33.994676,
        "lng": 18.609016,
        "radius": 92000,
        "bidding": null,
        "inserted_at": "2020-11-27 00:32:52",
        "last_updated_at": "2024-10-10 01:44:21",
        "parent_fleet_id": 15,
        "unverified": null,
        "service_area_pricing_id": 257993
    },
    {
        "id": 1161,
        "name": "Eindhoven,Netherlands",
        "lat": 51.450745,
        "lng": 5.377595,
        "radius": 50000,
        "bidding": null,
        "inserted_at": "2020-12-01 21:01:54",
        "last_updated_at": "2024-10-07 08:18:21",
        "parent_fleet_id": 15,
        "unverified": null,
        "service_area_pricing_id": 245037
    },
    {
        "id": 1492,
        "name": "Cluj-Napoca, Romania",
        "lat": 46.782507,
        "lng": 23.688025,
        "radius": 150000,
        "bidding": null,
        "inserted_at": "2020-12-11 01:27:12",
        "last_updated_at": "2024-10-07 10:02:48",
        "parent_fleet_id": 15,
        "unverified": null,
        "service_area_pricing_id": 245308
    },
    {
        "id": 2046,
        "name": "Ogdensburg, NY, USA",
        "lat": 44.682093,
        "lng": -75.47683,
        "radius": 41843,
        "bidding": null,
        "inserted_at": "2021-05-20 17:55:31",
        "last_updated_at": "2024-09-11 07:10:33",
        "parent_fleet_id": 15,
        "unverified": null,
        "service_area_pricing_id": 199347
    },
    {
        "id": 27582,
        "name": "Dhanbad",
        "lat": 23.833949,
        "lng": 86.426007,
        "radius": 150000,
        "bidding": null,
        "inserted_at": "2023-07-29 18:39:29",
        "last_updated_at": "2023-07-29 18:49:32",
        "parent_fleet_id": 15,
        "unverified": null,
        "service_area_pricing_id": 45925
    }
]